{ "locations" : [ { "address" : { "addressLine1" : "Christopher St",
            "addressLine2" : null,
            "addressLine3" : null,
            "city" : "New York",
            "country" : "USA",
            "state" : "NY",
            "zipCode" : "10014"
          },
        "description" : null,
        "id" : 8,
        "imagesUrl" : [ "/portalserver/static/backbase.com.expert.launchpad/stubs/atm-branches/christopher1.jpg",
            "/portalserver/static/backbase.com.expert.launchpad/stubs/atm-branches/christopher2.jpg"
          ],
        "latitude" : 40.733281099999999,
        "longitude" : -74.005080100000001,
        "name" : "Branch Christopher St",
        "openingHours" : [ { "hours" : "09:00 - 17:00",
              "id" : 4,
              "period" : "Mon - Wed"
            },
            { "hours" : "09:00 - 19:00",
              "id" : 5,
              "period" : "Thu - Fri"
            },
            { "hours" : "Closed",
              "id" : 6,
              "period" : "Sat - Sun"
            }
          ],
        "phoneNumber" : "1-888-123-1234",
        "type" : { "id" : 2,
            "name" : "BRANCH"
          },
        "webSiteUrl" : "http://www.gmail.com"
      },
      { "address" : { "addressLine1" : "23 St",
            "addressLine2" : null,
            "addressLine3" : null,
            "city" : "New York",
            "country" : "USA",
            "state" : "NY",
            "zipCode" : "10011"
          },
        "description" : null,
        "id" : 7,
        "imagesUrl" : [ "/portalserver/static/backbase.com.expert.launchpad/stubs/atm-branches/23st1.jpg",
            "/portalserver/static/backbase.com.expert.launchpad/stubs/atm-branches/23st2.jpg",
            "/portalserver/static/backbase.com.expert.launchpad/stubs/atm-branches/23st3.jpg"
          ],
        "latitude" : 40.7452921,
        "longitude" : -73.998969000000002,
        "name" : "Branch 23 St",
        "openingHours" : [ { "hours" : "09:00 - 18:00",
              "id" : 1,
              "period" : "Mon - Wed"
            },
            { "hours" : "09:00 - 19:00",
              "id" : 2,
              "period" : "Thu - Sat"
            },
            { "hours" : "Closed",
              "id" : 3,
              "period" : "Sun"
            }
          ],
        "phoneNumber" : "1-888-123-1234",
        "type" : { "id" : 2,
            "name" : "BRANCH"
          },
        "webSiteUrl" : "http://www.backbase.com"
      },
      { "address" : { "addressLine1" : "Secausus Rd",
            "addressLine2" : null,
            "addressLine3" : null,
            "city" : "New Jersey",
            "country" : "USA",
            "state" : "NJ",
            "zipCode" : "07047"
          },
        "description" : null,
        "id" : 4,
        "imagesUrl" : [  ],
        "latitude" : 40.757379999999998,
        "longitude" : -74.045900000000003,
        "name" : "ATM Secausus",
        "openingHours" : [  ],
        "phoneNumber" : null,
        "type" : { "id" : 1,
            "name" : "ATM"
          },
        "webSiteUrl" : null
      },
      { "address" : { "addressLine1" : "Hunterspoint Avenue Queens",
            "addressLine2" : null,
            "addressLine3" : null,
            "city" : "New York",
            "country" : "USA",
            "state" : "NY",
            "zipCode" : "11101"
          },
        "description" : null,
        "id" : 15,
        "imagesUrl" : [  ],
        "latitude" : 40.7423,
        "longitude" : -73.946899999999999,
        "name" : "ATM Hunterspoint",
        "openingHours" : [  ],
        "phoneNumber" : null,
        "type" : { "id" : 1,
            "name" : "ATM"
          },
        "webSiteUrl" : null
      },
      { "address" : { "addressLine1" : "Delancey St",
            "addressLine2" : null,
            "addressLine3" : null,
            "city" : "New York",
            "country" : "USA",
            "state" : "NY",
            "zipCode" : "10002"
          },
        "description" : null,
        "id" : 2,
        "imagesUrl" : [ "/portalserver/static/backbase.com.expert.launchpad/stubs/atm-branches/delancey1.jpg",
            "/portalserver/static/backbase.com.expert.launchpad/stubs/atm-branches/delancey2.jpg"
          ],
        "latitude" : 40.717277199999998,
        "longitude" : -73.985450900000004,
        "name" : "ATM Delancey",
        "openingHours" : [  ],
        "phoneNumber" : null,
        "type" : { "id" : 1,
            "name" : "ATM"
          },
        "webSiteUrl" : "http://www.backbase.com"
      },
      { "address" : { "addressLine1" : "Broadway - Lafayette St",
            "addressLine2" : null,
            "addressLine3" : null,
            "city" : "New York",
            "country" : "USA",
            "state" : "NY",
            "zipCode" : "10072"
          },
        "description" : null,
        "id" : 1,
        "imagesUrl" : [ "/portalserver/static/backbase.com.expert.launchpad/stubs/atm-branches/broadway1.jpg",
            "/portalserver/static/backbase.com.expert.launchpad/stubs/atm-branches/broadway2.jpg"
          ],
        "latitude" : 40.726900999999998,
        "longitude" : -73.995065999999994,
        "name" : "ATM Broadway",
        "openingHours" : [  ],
        "phoneNumber" : null,
        "type" : { "id" : 1,
            "name" : "ATM"
          },
        "webSiteUrl" : null
      },
      { "address" : { "addressLine1" : "96 St",
            "addressLine2" : null,
            "addressLine3" : null,
            "city" : "New York",
            "country" : "USA",
            "state" : "NY",
            "zipCode" : "10128"
          },
        "description" : null,
        "id" : 3,
        "imagesUrl" : [  ],
        "latitude" : 40.78584,
        "longitude" : -73.950800000000001,
        "name" : "ATM 96 st",
        "openingHours" : [  ],
        "phoneNumber" : null,
        "type" : { "id" : 1,
            "name" : "ATM"
          },
        "webSiteUrl" : null
      },
      { "address" : { "addressLine1" : "155 st",
            "addressLine2" : null,
            "addressLine3" : null,
            "city" : "New York",
            "country" : "USA",
            "state" : "NY",
            "zipCode" : "10032"
          },
        "description" : null,
        "id" : 6,
        "imagesUrl" : [  ],
        "latitude" : 40.83081,
        "longitude" : -73.941469999999995,
        "name" : "ATM 155 st",
        "openingHours" : [  ],
        "phoneNumber" : null,
        "type" : { "id" : 1,
            "name" : "ATM"
          },
        "webSiteUrl" : null
      },
	  
	  { "address" : { "addressLine1" : "Herengracht 34",
            "addressLine2" : null,
            "addressLine3" : null,
            "city" : "Amsterdam",
            "country" : "NL",
            "state" : "Nord-Holland",
            "zipCode" : "1033LT"
          },
        "description" : null,
        "id" : 9,
        "imagesUrl" : [ "/portalserver/static/backbase.com.expert.launchpad/stubs/atm-branches/christopher1.jpg",
            "/portalserver/static/backbase.com.expert.launchpad/stubs/atm-branches/christopher2.jpg"
          ],
        "latitude" : 52.365556,
        "longitude" : 4.891453,
        "name" : "Branch Christopher St",
        "openingHours" : [ { "hours" : "09:00 - 17:00",
              "id" : 4,
              "period" : "Mon - Wed"
            },
            { "hours" : "09:00 - 19:00",
              "id" : 5,
              "period" : "Thu - Fri"
            },
            { "hours" : "Closed",
              "id" : 6,
              "period" : "Sat - Sun"
            }
          ],
        "phoneNumber" : "1-888-123-1234",
        "type" : { "id" : 2,
            "name" : "BRANCH"
          },
        "webSiteUrl" : "http://www.gmail.com"
      },
      { "address" : { "addressLine1" : "Spuistraat 10",
           "addressLine2" : null,
            "addressLine3" : null,
            "city" : "Amsterdam",
            "country" : "NL",
            "state" : "Nord-Holland",
            "zipCode" : "1033LT"
          },
        "description" : null,
        "id" : 17,
        "imagesUrl" : [ "/portalserver/static/backbase.com.expert.launchpad/stubs/atm-branches/23st1.jpg",
            "/portalserver/static/backbase.com.expert.launchpad/stubs/atm-branches/23st2.jpg",
            "/portalserver/static/backbase.com.expert.launchpad/stubs/atm-branches/23st3.jpg"
          ],
        "latitude" : 52.369481,
        "longitude" : -4.88912,
        "name" : "Branch 23 St",
        "openingHours" : [ { "hours" : "09:00 - 18:00",
              "id" : 1,
              "period" : "Mon - Wed"
            },
            { "hours" : "09:00 - 19:00",
              "id" : 2,
              "period" : "Thu - Sat"
            },
            { "hours" : "Closed",
              "id" : 3,
              "period" : "Sun"
            }
          ],
        "phoneNumber" : "1-888-123-1234",
        "type" : { "id" : 2,
            "name" : "BRANCH"
          },
        "webSiteUrl" : "http://www.backbase.com"
      },
      { "address" : { "addressLine1" : "Keizersgracht 14",
           "addressLine2" : null,
            "addressLine3" : null,
            "city" : "Amsterdam",
            "country" : "NL",
            "state" : "Nord-Holland",
            "zipCode" : "1033LT"
          },
        "description" : null,
        "id" : 14,
        "imagesUrl" : [  ],
        "latitude" : 52.373652,
        "longitude" : 4.885075,
        "name" : "ATM Secausus",
        "openingHours" : [  ],
        "phoneNumber" : null,
        "type" : { "id" : 1,
            "name" : "ATM"
          },
        "webSiteUrl" : null
      },
      { "address" : { "addressLine1" : "Marnixstraat 37",
           "addressLine2" : null,
            "addressLine3" : null,
            "city" : "Amsterdam",
            "country" : "NL",
            "state" : "Nord-Holland",
            "zipCode" : "1033LT"
          },
        "description" : null,
        "id" : 5,
        "imagesUrl" : [  ],
        "latitude" : 52.380086,
        "longitude" : 4.881025,
        "name" : "ATM Hunterspoint",
        "openingHours" : [  ],
        "phoneNumber" : null,
        "type" : { "id" : 1,
            "name" : "ATM"
          },
        "webSiteUrl" : null
      },
      { "address" : { "addressLine1" : "Damrak 4",
           "addressLine2" : null,
            "addressLine3" : null,
            "city" : "Amsterdam",
            "country" : "NL",
            "state" : "Nord-Holland",
            "zipCode" : "1033LT"
          },
        "description" : null,
        "id" : 2,
        "imagesUrl" : [ "/portalserver/static/backbase.com.expert.launchpad/stubs/atm-branches/delancey1.jpg",
            "/portalserver/static/backbase.com.expert.launchpad/stubs/atm-branches/delancey2.jpg"
          ],
        "latitude" : 52.377227,
        "longitude" : 4.899489,
        "name" : "ATM Delancey",
        "openingHours" : [  ],
        "phoneNumber" : null,
        "type" : { "id" : 1,
            "name" : "ATM"
          },
        "webSiteUrl" : "http://www.backbase.com"
      },
      { "address" : { "addressLine1" : "Peperstraat",
           "addressLine2" : null,
            "addressLine3" : null,
            "city" : "Amsterdam",
            "country" : "NL",
            "state" : "Nord-Holland",
            "zipCode" : "1033LT"
          },
        "description" : null,
        "id" : 1,
        "imagesUrl" : [ "/portalserver/static/backbase.com.expert.launchpad/stubs/atm-branches/broadway1.jpg",
            "/portalserver/static/backbase.com.expert.launchpad/stubs/atm-branches/broadway2.jpg"
          ],
        "latitude" : 52.371666,
        "longitude" : 4.908931,
        "name" : "ATM Broadway",
        "openingHours" : [  ],
        "phoneNumber" : null,
        "type" : { "id" : 1,
            "name" : "ATM"
          },
        "webSiteUrl" : null
      },
      { "address" : { "addressLine1" : "Ijburglaan 563",
           "addressLine2" : null,
            "addressLine3" : null,
            "city" : "Amsterdam",
            "country" : "NL",
            "state" : "Nord-Holland",
            "zipCode" : "1033LT"
          },
        "description" : null,
        "id" : 13,
        "imagesUrl" : [  ],
        "latitude" : 52.356561,
        "longitude" : 4.992492,
        "name" : "ATM 96 st",
        "openingHours" : [  ],
        "phoneNumber" : null,
        "type" : { "id" : 1,
            "name" : "ATM"
          },
        "webSiteUrl" : null
      },
      { "address" : { "addressLine1" : "Admiralengracht 87",
           "addressLine2" : null,
            "addressLine3" : null,
            "city" : "Amsterdam",
            "country" : "NL",
            "state" : "Nord-Holland",
            "zipCode" : "1033LT"
          },
        "description" : null,
        "id" : 16,
        "imagesUrl" : [  ],
        "latitude" : 52.367686,
        "longitude" : 4.858057,
        "name" : "ATM 155 st",
        "openingHours" : [  ],
        "phoneNumber" : null,
        "type" : { "id" : 1,
            "name" : "ATM"
          },
        "webSiteUrl" : null
      }
    ] }